{
  "updated_at": "2026-06-21T15:00:05.821548+08:00",
  "total_taxis_online": 1896,
  "snapshot_timestamp": "2026-06-21 14:59:30+08:00",
  "hotspots": [
    {
      "id": "h1",
      "name": "Marina Bay / CBD",
      "level": "medium",
      "taxi_count": 29,
      "lat": 1.2897,
      "lng": 103.8501
    },
    {
      "id": "h2",
      "name": "Changi Airport",
      "level": "high",
      "taxi_count": 175,
      "lat": 1.3592,
      "lng": 103.9894
    },
    {
      "id": "h3",
      "name": "Orchard Road",
      "level": "low",
      "taxi_count": 16,
      "lat": 1.3048,
      "lng": 103.8318
    },
    {
      "id": "h4",
      "name": "Jurong East",
      "level": "low",
      "taxi_count": 11,
      "lat": 1.333,
      "lng": 103.7436
    },
    {
      "id": "h5",
      "name": "Woodlands",
      "level": "medium",
      "taxi_count": 22,
      "lat": 1.4382,
      "lng": 103.7891
    },
    {
      "id": "h6",
      "name": "Tampines",
      "level": "high",
      "taxi_count": 39,
      "lat": 1.353,
      "lng": 103.9434
    }
  ]
}