{
  "updated_at": "2026-06-21T14:45:07.013131+08:00",
  "total_taxis_online": 1698,
  "snapshot_timestamp": "2026-06-21 14:44:59+08:00",
  "hotspots": [
    {
      "id": "h1",
      "name": "Marina Bay / CBD",
      "level": "high",
      "taxi_count": 35,
      "lat": 1.2897,
      "lng": 103.8501
    },
    {
      "id": "h2",
      "name": "Changi Airport",
      "level": "high",
      "taxi_count": 152,
      "lat": 1.3592,
      "lng": 103.9894
    },
    {
      "id": "h3",
      "name": "Orchard Road",
      "level": "medium",
      "taxi_count": 14,
      "lat": 1.3048,
      "lng": 103.8318
    },
    {
      "id": "h4",
      "name": "Jurong East",
      "level": "low",
      "taxi_count": 7,
      "lat": 1.333,
      "lng": 103.7436
    },
    {
      "id": "h5",
      "name": "Woodlands",
      "level": "low",
      "taxi_count": 10,
      "lat": 1.4382,
      "lng": 103.7891
    },
    {
      "id": "h6",
      "name": "Tampines",
      "level": "medium",
      "taxi_count": 29,
      "lat": 1.353,
      "lng": 103.9434
    }
  ]
}